[
    {
        "cc1": "vn",
        "city_name": "",
        "city_ufi": null,
        "country": "Vietnam",
        "dest_id": "6877",
        "dest_type": "region",
        "hotels": 17,
        "label": "Tra Vinh, Vietnam",
        "landmark_type": -1,
        "latitude": 9.943975,
        "lc": "en",
        "longitude": 106.30465,
        "name": "Tra Vinh",
        "nr_hotels": 17,
        "region": "Tra Vinh",
        "rtl": 0,
        "type": "re"
    },
    {
        "cc1": "vn",
        "city_name": "Trà Vinh",
        "city_ufi": null,
        "country": "Vietnam",
        "dest_id": "-3732236",
        "dest_type": "city",
        "hotels": 14,
        "label": "Trà Vinh, Tra Vinh, Vietnam",
        "landmark_type": -1,
        "latitude": 9.93472,
        "lc": "en",
        "longitude": 106.345001,
        "name": "Trà Vinh",
        "nr_hotels": 14,
        "region": "Tra Vinh",
        "rtl": 0,
        "type": "ci"
    },
    {
        "cc1": "vn",
        "city_name": "Trà Vinh",
        "city_ufi": -3732236,
        "country": "Vietnam",
        "dest_id": "6601748",
        "dest_type": "hotel",
        "hotels": 1,
        "label": "KHÁCH SẠN THANH TRÀ, Trà Vinh, Tra Vinh, Vietnam",
        "landmark_type": -1,
        "latitude": 9.936947,
        "lc": "en",
        "longitude": 106.34197,
        "name": "KHÁCH SẠN THANH TRÀ",
        "nr_hotels": 1,
        "region": "Tra Vinh",
        "rtl": 0,
        "type": "ho"
    },
    {
        "cc1": "vn",
        "city_name": "Trà Cồn",
        "city_ufi": null,
        "country": "Vietnam",
        "dest_id": "8036177",
        "dest_type": "city",
        "hotels": 0,
        "label": "Trà Cồn, Vinh Long, Vietnam",
        "landmark_type": -1,
        "latitude": 9.99444007873535,
        "lc": "en",
        "longitude": 106.011001586914,
        "name": "Trà Cồn",
        "nr_hotels": 0,
        "region": "Vinh Long",
        "rtl": 0,
        "type": "ci"
    },
    {
        "cc1": "vn",
        "city_name": "Trà Ôn",
        "city_ufi": null,
        "country": "Vietnam",
        "dest_id": "-3732185",
        "dest_type": "city",
        "hotels": 0,
        "label": "Trà Ôn, Vinh Long, Vietnam",
        "landmark_type": -1,
        "latitude": 9.96082973480225,
        "lc": "en",
        "longitude": 105.927001953125,
        "name": "Trà Ôn",
        "nr_hotels": 0,
        "region": "Vinh Long",
        "rtl": 0,
        "type": "ci"
    }
]