[
    {
        "cc1": "vn",
        "city_name": "Ha Giang",
        "city_ufi": null,
        "country": "Vietnam",
        "dest_id": "-3714774",
        "dest_type": "city",
        "hotels": 211,
        "label": "Ha Giang, Ha Giang, Vietnam",
        "landmark_type": -1,
        "latitude": 22.8333,
        "lc": "en",
        "longitude": 104.983002,
        "name": "Ha Giang",
        "nr_hotels": 211,
        "region": "Ha Giang",
        "rtl": 0,
        "type": "ci"
    },
    {
        "cc1": "vn",
        "city_name": "Dồng Văn",
        "city_ufi": null,
        "country": "Vietnam",
        "dest_id": "-3713654",
        "dest_type": "city",
        "hotels": 31,
        "label": "Dồng Văn, Ha Giang, Vietnam",
        "landmark_type": -1,
        "latitude": 23.266701,
        "lc": "en",
        "longitude": 105.366997,
        "name": "Dồng Văn",
        "nr_hotels": 31,
        "region": "Ha Giang",
        "rtl": 0,
        "type": "ci"
    },
    {
        "cc1": "vn",
        "city_name": "Ha Tien",
        "city_ufi": null,
        "country": "Vietnam",
        "dest_id": "-3715071",
        "dest_type": "city",
        "hotels": 28,
        "label": "Ha Tien, Kien Giang , Vietnam",
        "landmark_type": -1,
        "latitude": 10.3828,
        "lc": "en",
        "longitude": 104.48595,
        "name": "Ha Tien",
        "nr_hotels": 28,
        "region": "Kien Giang ",
        "rtl": 0,
        "type": "ci"
    },
    {
        "cc1": "vn",
        "city_name": "",
        "city_ufi": null,
        "country": "Vietnam",
        "dest_id": "6906",
        "dest_type": "region",
        "hotels": 356,
        "label": "Ha Giang, Vietnam",
        "landmark_type": -1,
        "latitude": 22.996875,
        "lc": "en",
        "longitude": 105.119729,
        "name": "Ha Giang",
        "nr_hotels": 356,
        "region": "Ha Giang",
        "rtl": 0,
        "type": "re"
    },
    {
        "cc1": "vn",
        "city_name": "Ha Giang",
        "city_ufi": -3714774,
        "country": "Vietnam",
        "dest_id": "5570150",
        "dest_type": "hotel",
        "hotels": 1,
        "label": "Ha Giang Hostel, Ha Giang, Ha Giang, Vietnam",
        "landmark_type": -1,
        "latitude": 22.8054965858332,
        "lc": "en",
        "longitude": 104.975906079407,
        "name": "Ha Giang Hostel",
        "nr_hotels": 1,
        "region": "Ha Giang",
        "rtl": 0,
        "type": "ho"
    }
]