[
    {
        "cc1": "vn",
        "city_name": "",
        "city_ufi": null,
        "country": "Vietnam",
        "dest_id": "6890",
        "dest_type": "region",
        "hotels": 43,
        "label": "Dong Thap, Vietnam",
        "landmark_type": -1,
        "latitude": 10.426231,
        "lc": "en",
        "longitude": 105.661201,
        "name": "Dong Thap",
        "nr_hotels": 43,
        "region": "Dong Thap",
        "rtl": 0,
        "type": "re"
    },
    {
        "cc1": "vn",
        "city_name": "Ấp Ðông Qứi",
        "city_ufi": null,
        "country": "Vietnam",
        "dest_id": "-3702599",
        "dest_type": "city",
        "hotels": 1,
        "label": "Ấp Ðông Qứi, Dong Thap, Vietnam",
        "landmark_type": -1,
        "latitude": 10.3333,
        "lc": "en",
        "longitude": 105.733002,
        "name": "Ấp Ðông Qứi",
        "nr_hotels": 1,
        "region": "Dong Thap",
        "rtl": 0,
        "type": "ci"
    },
    {
        "cc1": "vn",
        "city_name": "Ấp Ðông Quì",
        "city_ufi": null,
        "country": "Vietnam",
        "dest_id": "-3702598",
        "dest_type": "city",
        "hotels": 1,
        "label": "Ấp Ðông Quì, Dong Thap, Vietnam",
        "landmark_type": -1,
        "latitude": 10.3167,
        "lc": "en",
        "longitude": 105.766998,
        "name": "Ấp Ðông Quì",
        "nr_hotels": 1,
        "region": "Dong Thap",
        "rtl": 0,
        "type": "ci"
    },
    {
        "cc1": "vn",
        "city_name": "Phan Rang",
        "city_ufi": -3725083,
        "country": "Vietnam",
        "dest_id": "5815477",
        "dest_type": "hotel",
        "hotels": 1,
        "label": "Khách sạn Ánh Đông, Phan Rang, Ninh Thuan, Vietnam",
        "landmark_type": -1,
        "latitude": 11.56865,
        "lc": "en",
        "longitude": 109.001226,
        "name": "Khách sạn Ánh Đông",
        "nr_hotels": 1,
        "region": "Ninh Thuan",
        "rtl": 0,
        "type": "ho"
    },
    {
        "cc1": "vn",
        "city_name": "Dong Thập",
        "city_ufi": null,
        "country": "Vietnam",
        "dest_id": "-3713558",
        "dest_type": "city",
        "hotels": 0,
        "label": "Dong Thập, Yen Bai, Vietnam",
        "landmark_type": -1,
        "latitude": 21.7667007446289,
        "lc": "en",
        "longitude": 104.699996948242,
        "name": "Dong Thập",
        "nr_hotels": 0,
        "region": "Yen Bai",
        "rtl": 0,
        "type": "ci"
    }
]